name,lat,lng,address,state,type,website
Pinal Energy LLC,33.011687,-111.981691,"38585 Cowtown Rd, Maricopa, AZ 85138, USA",AZ,Non-Member Facility,http://www.pinalenergyllc.com/
Aemetis Keyes,37.55142685377392,-120.91640086351248,"4209 Jessup Rd, Ceres, CA 95307, USA",CA,Non-Member Facility,https://www.aemetis.com/
Calgren Renewable Fuels LLC,36.00207341332268,-119.3029069453532,"11704 Rd 120, Pixley, CA 93256, USA",CA,Non-Member Facility,https://calgren.com/
Parallel Products of California,34.09852377313965,-117.5373413607637,"12281 Arrow Route, Rancho Cucamonga, CA 91739, USA",CA,Non-Member Facility,https://www.parallelproducts.com/ontario-ca
Pelican Renewables LLC,37.94138207270557,-121.34058588890568,"3028 Navy Drive, Stockton, CA 95206, USA",CA,Non-Member Facility,https://pelicanrenewables.com/
Seaboard Energy California LLC,36.92285439509765,-119.97428433182536,"31470 Ave 12, Madera, CA 93638, USA",CA,Non-Member Facility,https://seaboardenergy.com/operations/
Front Range Energy LLC,40.47748,-104.90136,"31375 Great Western Drive, Windsor, CO 80550, USA",CO,Producer Plant,https://www.frontrangeenergy.com/
Merrick &#038; Company,39.7687608,-105.1808225,"1005 Vasquez St, Golden, CO 80401, USA",CO,Non-Member Facility,https://www.merrick.com/project/millercoors-ethanol-recovery-facility-biomass-conversion-ethanol/
Sterling Ethanol LLC,40.62554,-103.20771,"450 Angus Ave, Sterling, CO 80751, USA",CO,Producer Plant,http://www.bridgeportethanol.com/index.cfm?show=10&mid=31
Yuma Ethanol LLC,40.12222,-102.68127,"38480 County Rd H, Yuma, CO 80759, USA",CO,Producer Plant,http://www.bridgeportethanol.com/index.cfm?show=10&mid=28
LanzaJet Freedom Pines Fuels LLC (Under Construction),32.40410424807951,-82.62079054160161,"535 Commerce Dr, Soperton, GA 30457, USA",GA,Non-Member Facility,https://www.lanzajet.com/freedom-pines
Renmatix &#8211; Kennesaw,34.01083435155886,-84.59738594421476,"1640 Airport Rd #108, Kennesaw, GA 30144, USA",GA,Non-Member Facility,https://renmatix.com/contact/#locations
ADM &#8211; Cedar Rapids Dry Mill,41.9285216,-91.6909308,"1425 60th Ave SW, Cedar Rapids, IA 52404, USA",IA,Producer Plant,https://www.adm.com/en-us/products-services/industrial-biosolutions/products/ethanol/
ADM &#8211; Cedar Rapids Wet Mill,41.975887,-91.670405,"1350 Waconia Ave SW, Cedar Rapids, IA 52404, USA",IA,Producer Plant,https://www.adm.com/en-us/products-services/industrial-biosolutions/products/ethanol/
ADM &#8211; Clinton,41.8204268,-90.2123884,"1251 Beaver Channel Pkwy, Clinton, IA 52732, USA",IA,Producer Plant,https://www.adm.com/en-us/products-services/industrial-biosolutions/products/ethanol/
Absolute Energy LLC,43.37881,-92.91958,"1372 State Line St, St Ansgar, IA 50472, USA",IA,Producer Plant,https://absenergy.org/
Big River Resources West Burlington LLC,40.82504,-91.15654,"15210 103rd St, West Burlington, IA 52655, USA",IA,Producer Plant,https://www.bigriverresources.com/cbloc-2164
Big River United Energy LLC,42.48736,-91.16287,"3294 Vine Rd, Dyersville, IA 52040, USA",IA,Producer Plant,https://www.bigriverresources.com/cbloc-2162
Cargill &#8211; Eddyville,41.139445,-92.645392,"17540 Monroe Wapello Rd, Eddyville, IA 52553, USA",IA,Producer Plant,https://www.cargill.com/bioindustrial/starches-and-derivatives/starch-derivatives/industrial-ethanol
Cargill &#8211; Fort Dodge,42.50699428653332,-94.31355004161536,"1950 Harvest Avenue, Fort Dodge, IA 50501, USA",IA,Producer Plant,https://www.cargill.com/bioindustrial/starches-and-derivatives/starch-derivatives/industrial-ethanol
Corn LP,42.73345,-93.91176,"1303 IA-3, Goldfield, IA 50542, USA",IA,Producer Plant,http://www.cornlp.com/
Elite Octane LLC,41.423412881460074,-95.02993245945068,"60502 Glacier Road, Atlantic, IA 50022, USA",IA,Producer Plant,https://www.eliteoctane.net/
Golden Grain Energy LLC,43.11690733389292,-93.23037679823844,"1822 43rd Street Southwest, Mason City, IA 50401, USA",IA,Producer Plant,https://ggecorn.com/
Grain Processing Corporation &#8211; Muscatine,41.4003364,-91.0654351,"1600 Oregon St, Muscatine, IA 52761, USA",IA,Non-Member Facility,https://www.grainprocessing.com/
Green Plains &#8211; Shenandoah,40.75877,-95.3756,"4124 Airport Road, Shenandoah, IA 51601, USA",IA,Non-Member Facility,https://gpreinc.com/location/shenandoah/
Green Plains &#8211; Superior,43.43267,-94.94708,"1495 320th Avenue, Superior, IA 51363, USA",IA,Non-Member Facility,https://gpreinc.com/location/superior/
Homeland Energy Solutions LLC,43.0723253,-92.20767,"2779 Iowa 24, Lawler, IA 52154, USA",IA,Non-Member Facility,https://www.homelandenergysolutions.com/
Lincolnway Energy LLC,42.02663049445803,-93.51071812060674,"59511 W Lincoln Hwy, Nevada, IA 50201, USA",IA,Producer Plant,https://lincolnwayenergy.com/
"Little Sioux Corn Processors, LP",42.8215989,-95.7664747,"4808 F Ave, Marcus, IA 51035, USA",IA,Non-Member Facility,https://www.littlesiouxcornprocessors.com/
Louis Dreyfus Company,42.053641,-94.236229,"1149 U Ave, Grand Junction, IA 50107, USA",IA,Non-Member Facility,https://www.ldc.com/us/en/our-facilities/grand-junction-ia/
New Energy Freedom Biomass Refinery (Under Construction),43.11222920335998,-93.24101853050269,"14000 240th Street, Mason City, IA 50401, USA",IA,Non-Member Facility,https://newenergyblue.com/
POET Bioprocessing &#8211; Arthur,42.3310675,-95.3572725,"2585 Quail Ave, Arthur, IA 51431, USA",IA,Producer Plant,https://poet.com/arthur
POET Bioprocessing &#8211; Ashton,43.31136,-95.79113,"4970 260th St, Ashton, IA 51232, USA",IA,Producer Plant,https://poet.com/ashton
POET Bioprocessing &#8211; Coon Rapids,41.87246,-94.67679,"1015 Grant Ave, Coon Rapids, IA 50058, USA",IA,Producer Plant,https://poet.com/coonrapids
POET Bioprocessing &#8211; Corning,40.99134,-94.73703,"1680 Brooks Road, Corning, IA 50841, USA",IA,Producer Plant,https://poet.com/corning
POET Bioprocessing &#8211; Emmetsburg,43.11274,-94.68304,"4724 380th St, Emmetsburg, IA 50536, USA",IA,Producer Plant,https://poet.com/emmetsburg
POET Bioprocessing &#8211; Fairbank,42.6409983,-92.0316215,"1277 102nd St, Fairbank, IA 50629, USA",IA,Producer Plant,https://poet.com/fairbank
POET Bioprocessing &#8211; Gowrie,42.27775,-94.29191,"1562 320th St, Gowrie, IA 50543, USA",IA,Producer Plant,https://poet.com/gowrie
POET Bioprocessing &#8211; Hanlontown,43.28093,-93.37916,"3638 Fir Avenue, Hanlontown, IA 50444, USA",IA,Producer Plant,https://poet.com/hanlontown
POET Bioprocessing &#8211; Iowa Falls,42.5067448,-93.2843662,"21050 140th St, Iowa Falls, IA 50126, USA",IA,Producer Plant,https://poet.com/iowafalls
POET Bioprocessing &#8211; Jewell,42.30693,-93.64022,"2601 320th St, Jewell, IA 50130, USA",IA,Producer Plant,https://poet.com/jewell
POET Bioprocessing &#8211; Menlo,41.5230192,-94.3882898,"3363 Talon Ave, Menlo, IA 50164, USA",IA,Producer Plant,https://poet.com/menlo
POET Bioprocessing &#8211; Shell Rock,42.7393533,-92.6206638,"30750 212th St, Shell Rock, IA 50670, USA",IA,Producer Plant,https://poet.com/shellrock
Pine Lake Corn Processors LLC,42.45918609436738,-93.05715927216735,"33371 170th St, Steamboat Rock, IA 50672, USA",IA,Producer Plant,https://www.innovativeag.com/grain
"Plymouth Energy, LLC",42.73135,-96.24972,"22234 K42, Merrill, IA 51038, USA",IA,Non-Member Facility,http://www.plymouthenergyllc.com/
Quad County Corn Processors,42.4771,-95.41424,"6059 159th St, Galva, IA 51020, USA",IA,Non-Member Facility,https://www.quad-county.com/
Siouxland Energy Cooperative,43.07655,-96.17321,"3890 Garfield Ave, Sioux Center, IA 51250, USA",IA,Producer Plant,https://www.siouxlandenergy.com/
Southwest Iowa Renewable Energy LLC,41.172587,-95.827733,"10868 189th St, Council Bluffs, IA 51503, USA",IA,Producer Plant,https://sireethanol.com/
The Andersons &#8211; Denison,41.9912039,-95.3945286,"2404 Lincoln Highway, Denison, IA 51442, USA",IA,Producer Plant,https://www.andersonsgrain.com/locations/ia/denison/
Valero Renewable Fuels &#8211; Albert City,42.7778637,-94.9400495,"2356 510th Street, Albert City, IA 50510, USA",IA,Non-Member Facility,https://www.valero.com/about/locations/albert-city-plant
Valero Renewable Fuels &#8211; Charles City,43.101526,-92.7585796,"1787 Quarry Road, Charles City, IA 50616, USA",IA,Non-Member Facility,https://www.valero.com/about/locations/charles-city-plant
Valero Renewable Fuels &#8211; Fort Dodge,42.511739652059134,-94.3003106578462,"1930 Hayes Avenue, Fort Dodge, IA 50501, USA",IA,Non-Member Facility,https://www.valero.com/about/locations/fort-dodge-plant
Valero Renewable Fuels &#8211; Hartley,43.1808591,-95.501099,"3260 Van Buren Ave, Hartley, IA 51346, USA",IA,Non-Member Facility,https://www.valero.com/about/locations/hartley-plant
Valero Renewable Fuels &#8211; Lakota,43.38462,-94.1432,"1660 428th Street, Lakota, IA 50451, USA",IA,Non-Member Facility,https://www.valero.com/about/locations/lakota-plant
Verbio &#8211; Nevada,42.0242986,-93.5194659,"59219 Lincoln Hwy, Nevada, IA 50201, USA",IA,Non-Member Facility,https://www.verbio-north-america.com/locations/verbio-nevada-biorefinery
Alto Ingredients Magic Valley LLC,42.520978,-113.815359,"2600 Washington Ave, Burley, ID 83318, USA",ID,Non-Member Facility,https://www.altoingredients.com/magic-valley-id/
ADM &#8211; Decatur,39.8674495,-88.9503161,"4666 East Faries Parkway, Decatur, IL 62526, USA",IL,Producer Plant,https://www.adm.com/en-us/products-services/industrial-biosolutions/products/ethanol/
Adkins Energy LLC,42.36268,-89.80448,"4350 W Galena Rd, Lena, IL 61048, USA",IL,Producer Plant,https://www.adkinsenergy.com/
Alto Ingredients ICP LLC,40.56748022,-89.62621989,"1301 S Front St, Pekin, IL 61554, USA",IL,Non-Member Facility,https://www.altoingredients.com/icp-mill-distillery/
Alto Ingredients Pekin LLC Dry Mill,40.55477158175107,-89.66340028737393,"1300 S 2nd St, Pekin, IL 61554, USA",IL,Non-Member Facility,https://www.altoingredients.com/dry-mill/
Alto Ingredients Pekin LLC Wet Mill,40.554795952250466,-89.66340048030101,"1300 S 2nd St, Pekin, IL 61554, USA",IL,Non-Member Facility,https://www.altoingredients.com/wet-mill-distillery/
Big River Resources Galva LLC,41.169670000000004,-90.02498,"1100 SE 2nd St, Galva, IL 61434, USA",IL,Producer Plant,https://www.bigriverresources.com/cbloc-2163
BioUrja Renewables LLC,40.6777374,-89.607189,"1 Edmund St, Peoria, IL 61602, USA",IL,Non-Member Facility,https://www.biourja.com/
CHS &#8211; Annawan,41.3936463,-89.8747394,"101 Patriot Way, Annawan, IL 61234, USA",IL,Non-Member Facility,http://www.chsinc.com/
CHS &#8211; Rochelle,41.8932136,-89.0360671,"1900 South Steward Road, Rochelle, IL 61068, USA",IL,Non-Member Facility,http://www.chsinc.com/
Crysalis Biosciences (Under Construction),38.5865511,-90.16345596,"231 Monsanto Ave, Sauget, IL 62201, USA",IL,Non-Member Facility,https://crysalisbio.com
Green Plains &#8211; Madison,38.679842,-90.171459,"395 Bissell St, Madison, IL 62060, USA",IL,Non-Member Facility,https://gpreinc.com/location/madison/
"Lincolnland Agri-Energy, LLC",39.00365,-87.6128,"10406 N 1725th St, Palestine, IL 62451, USA",IL,Non-Member Facility,https://www.lincolnlandagrienergy.com/
Marquis Energy LLC,41.2542,-89.34231,"10000 Marquis Dr, Hennepin, IL 61327, USA",IL,Producer Plant,https://marquisinc.com/
One Earth Energy,40.46640829,-88.37894782,"202 N Jordan Dr, Gibson City, IL 60936, USA",IL,Non-Member Facility,http://www.oneearthenergy.com/
CIE &#8211; Marion,40.5639891,-85.7302197,"2955 West Delphi Pike, Marion, IN 46952, USA",IN,Non-Member Facility,http://www.cie.us/
Cardinal Ethanol LLC &#8211; Union City,40.20199,-84.80913,"1554 North 600 East, Union City, IN 47390, USA",IN,Producer Plant,https://www.cardinalethanol.com/aboutus
Grain Processing Corporation &#8211; Washington,38.6331882,-87.2292749,"1443 South 300 West, Washington, IN 47501, USA",IN,Non-Member Facility,https://www.grainprocessing.com/
Green Plains &#8211; Mount Vernon,37.905396,-87.722751,"8999 W Franklin Rd, Mount Vernon, IN 47620, USA",IN,Non-Member Facility,https://gpreinc.com/location/mount-vernon/
Iroquois Bio-Energy Company LLC,40.93322,-87.0588,"751 Indiana 114, Rensselaer, IN 47978, USA",IN,Producer Plant,https://harvestonelcp.com/fccp-ibec-22115
POET Bioprocessing &#8211; Alexandria,40.26282,-85.67581,"13179 North 100 East, Alexandria, IN 46001, USA",IN,Producer Plant,https://poet.com/alexandria
POET Bioprocessing &#8211; Cloverdale,39.51492,-86.79412,"2265 E County Rd 800 S, Cloverdale, IN 46120, USA",IN,Producer Plant,https://poet.com/cloverdale
POET Bioprocessing &#8211; North Manchester,40.94049,-85.78297,"868 East 800 North, North Manchester, IN 46962, USA",IN,Producer Plant,https://poet.com/northmanchester
POET Bioprocessing &#8211; Portland,40.43449,-84.97775,"1542 South 200 West, Portland, IN 47371, USA",IN,Producer Plant,https://poet.com/portland
POET Bioprocessing &#8211; Shelbyville,39.564619,-85.8236487,"2373 West 300 North, Shelbyville, IN 46176, USA",IN,Producer Plant,https://poet.com/shelbyville
The Andersons &#8211; Clymers,40.718434,-86.4410267,"3389 W County Rd 300 S, Logansport, IN 46947, USA",IN,Producer Plant,https://www.andersonsgrain.com/locations/in/clymers/
Valero Renewable Fuels &#8211; Bluffton,40.72152,-85.20305,"1441 South Adams Street, Bluffton, IN 46714, USA",IN,Non-Member Facility,https://www.valero.com/about/locations/bluffton-plant
Valero Renewable Fuels &#8211; Linden,40.197601386683594,-86.90900080174184,"203 County Rd 1100 N, Linden, IN 47955, USA",IN,Non-Member Facility,https://www.valero.com/about/locations/linden-plant
Valero Renewable Fuels &#8211; Mount Vernon,37.9330494,-87.8758192,"7201 Port Road, Mount Vernon, IN 47620, USA",IN,Non-Member Facility,https://www.valero.com/about/locations/mount-vernon-plant
Verbio &#8211; South Bend,41.6538239,-86.2954048,"3201 W Calvert St, South Bend, IN 46613, USA",IN,Non-Member Facility,https://www.verbio-north-america.com/locations/south-bend-ethanol
Amber Wave,39.7605756099624,-99.30616085396969,"1664 E 100 Rd, Phillipsburg, KS 67661, USA",KS,Non-Member Facility,https://amberwaveusa.com/
Cardinal Ethanol LLC &#8211; Colwich,37.7863884,-97.5334827,"523 E Union Ave, Colwich, KS 67030, USA",KS,Producer Plant,https://www.cardinalethanol.com/aboutus
Conestoga &#8211; Arkalon Energy,37.1065,-100.8002,"8664 Rd P, Liberal, KS 67901, USA",KS,Producer Plant,https://conestogaenergy.com/renewable-fuel/
Conestoga &#8211; Bonanza BioEnergy,37.95876,-100.83654,"2830 E US Hwy 50, Garden City, KS 67846, USA",KS,Producer Plant,https://conestogaenergy.com/renewable-fuel/
East Kansas Agri-Energy LLC,38.272117,-95.24062,"1304 S Main St, Garnett, KS 66032, USA",KS,Non-Member Facility,https://ekaellc.com/
Kansas Ethanol LLC,38.34501,-98.20173,"1630 Ave Q, Lyons, KS 67554, USA",KS,Producer Plant,http://www.kansasethanol.net/
MGP Ingredients,39.56052599885136,-95.13403283461044,"1300 Main St, Atchison, KS 66002, USA",KS,Non-Member Facility,https://www.mgpingredients.com/
Nesika Energy LLC,39.786352,-97.821159,"1020 70 Rd, Scandia, KS 66966, USA",KS,Non-Member Facility,http://nesikaenergyllc.com/
Pratt Energy LLC,37.689372,-98.70934,"10333 NE 30th St, Pratt, KS 67124, USA",KS,Non-Member Facility,http://www.prattenergy.com/
PureField Ingredients LLC,38.89939624853,-98.84417955595173,"1030 E 15th St, Russell, KS 67665, USA",KS,Producer Plant,https://www.purefield.com/
Reeve Agri Energy,37.88216,-100.89072,"5455 S Old Hwy 83, Garden City, KS 67846, USA",KS,Non-Member Facility,https://www.reevecattleco.com/ethanol-plant
Western Plains Energy LLC,39.12802,-100.85449,"3022 County Rd 18, Oakley, KS 67748, USA",KS,Producer Plant,https://wpellc.com/
Commonwealth Agri-Energy LLC,36.813894,-87.411335,"4895 Pembroke Rd, Hopkinsville, KY 42240, USA",KY,Non-Member Facility,http://www.commonwealthagrienergy.com/
Parallel Products of Kentucky,38.214817,-85.764724,"1620 Bernheim Ln, Louisville, KY 40210, USA",KY,Non-Member Facility,https://www.parallelproducts.com/louisville-ky
Carbon Green Bioenergy LLC,42.78476,-85.13834,"7795 Saddlebag Lake Rd, Lake Odessa, MI 48849, USA",MI,Non-Member Facility,https://cgbioenergy.com/
Marysville Ethanol LLC,42.888493,-82.494204,"2512 Busha Hwy, Marysville, MI 48040, USA",MI,Non-Member Facility,
POET Bioprocessing &#8211; Caro,43.49113,-83.3969,"1551 Empire Drive, Caro, MI 48723, USA",MI,Producer Plant,https://poet.com/caro
The Andersons &#8211; Albion,42.2610739,-84.7914776,"26250 B Drive North, Albion, MI 49224, USA",MI,Producer Plant,https://www.andersonsgrain.com/locations/mi/albion/
ZFS Riga LLC,41.81924,-83.84478,"7025 Silberhorn Hwy, Blissfield, MI 49228, USA",MI,Non-Member Facility,https://zfsriga.com/
ADM &#8211; Marshall,44.4743008,-95.7857237,"400 Erie Rd, Marshall, MN 56258, USA",MN,Producer Plant,https://www.adm.com/en-us/products-services/industrial-biosolutions/products/ethanol/
Al-Corn Clean Fuel,44.0494167,-93.0193711,"797 5th St, Claremont, MN 55924, USA",MN,Non-Member Facility,https://al-corn.com/
Bushmills Ethanol,45.13695,-94.80442,"17025 U.S. 12, Atwater, MN 56209, USA",MN,Producer Plant,http://bushmillsethanol.com/
Chippewa Valley Ethanol Co.,45.327056,-95.638089,"270 20th St NW, Benson, MN 56215, USA",MN,Non-Member Facility,https://cvec.com/
Denco II LLC,45.53547,-95.91468,"227 Co Rd 22, Morris, MN 56267, USA",MN,Producer Plant,https://www.dencollc.com/
Gevo &#8211; Luverne,43.64759,-96.224798,"502 S Walnut Ave, Luverne, MN 56156, USA",MN,Non-Member Facility,https://gevo.com/location/luverne-mn/
Granite Falls Energy LLC,44.8001124,-95.4885418,"15045 Hwy 23, Granite Falls, MN 56241, USA",MN,Producer Plant,https://granitefallsenergy.com/
Green Plains &#8211; Fairmont,43.66523,-94.49898,"1125 North Bixby Road, Fairmont, MN 56031, USA",MN,Non-Member Facility,https://gpreinc.com/location/fairmont/
Green Plains &#8211; Otter Tail,46.31345,-96.13007,"24096 170th Avenue, Fergus Falls, MN 56537, USA",MN,Non-Member Facility,https://gpreinc.com/location/otter-tail/
Greenfield Global Winnebago LLC,43.7604969,-94.152116,"711 6th Ave SE, Winnebago, MN 56098, USA",MN,Non-Member Facility,https://greenfield.com/locations/winnebago-minnesota/
Guardian Energy Janesville,44.112092,-93.679334,"4745 380th Avenue, Janesville, MN 56048, USA",MN,Non-Member Facility,https://www.guardiannrg.com/locations/janesville
Heartland Corn Products,45.3270598,-95.6402777,"53331 MN-19, Winthrop, MN 55396, USA",MN,Non-Member Facility,http://www.heartlandcorn.com/
"Heron Lake BioEnergy, LLC",45.3270598,-95.6402777,"91246 390th Ave, Heron Lake, MN 56137, USA",MN,Non-Member Facility,http://www.heronlakebioenergy.com/
Highwater Ethanol LLC,44.230313,-95.298706,"24500 U.S. 14, Lamberton, MN 56152, USA",MN,Non-Member Facility,http://www.highwaterethanol.com/
POET Bioprocessing &#8211; Bingham Lake,43.90667,-95.04639,"40212 510th Avenue, Bingham Lake, MN 56118, USA",MN,Producer Plant,https://poet.com/binghamlake
POET Bioprocessing &#8211; Glenville,43.56897,-93.27562,"15300 780th Ave, Albert Lea, MN 56007, USA",MN,Producer Plant,https://poet.com/glenville
POET Bioprocessing &#8211; Lake Crystal,44.1058,-94.21885,"19200 499th Avenue, Lake Crystal, MN 56055, USA",MN,Producer Plant,https://poet.com/lakecrystal
POET Bioprocessing &#8211; Preston,43.67024,-92.08322,"701 Industrial Dr, Preston, MN 55965, USA",MN,Producer Plant,https://poet.com/preston
Valero Renewable Fuels &#8211; Welcome,43.6621012,-94.5911265,"1444 120th St, Welcome, MN 56181, USA",MN,Non-Member Facility,https://www.valero.com/about/locations/welcome-plant
Golden Triangle Energy LLC,40.1907362,-95.4513293,"15053 MO-111, Craig, MO 64437, USA",MO,Non-Member Facility,http://www.goldentriangleenergy.com/
Mid-Missouri Energy Inc.,39.1963787,-93.3846546,"15311 U.S. 65, Malta Bend, MO 65339, USA",MO,Non-Member Facility,http://midmissourienergy.com/
POET Bioprocessing &#8211; Laddonia,39.24254,-91.64544,"809 N Pine St, Laddonia, MO 63352, USA",MO,Producer Plant,https://poet.com/laddonia
POET Bioprocessing &#8211; Macon,39.74226,-92.47269,"30211 Major Avenue, Macon, MO 63552, USA",MO,Producer Plant,https://poet.com/macon
SME Alcohol,39.36562,-93.45125,"26530 U.S. 24, Carrollton, MO 64633, USA",MO,Producer Plant,http://www.smealcohol.com/
The Lifeline Group,39.7382545,-94.8477239,"2811 S 11th Street Rd, St Joseph, MO 64503, USA",MO,Producer Plant,https://www.lifeline-group.com/products-bio/
Benchmark Renewable Energy LLC,34.947958678699614,-79.14674922699977,"800 Pate Rd, Raeford, NC 28376, USA",NC,Non-Member Facility,https://benchmarkrenewable.com/
Blue Flint Ethanol,47.37138,-101.16355,"2841 3rd St SW, Underwood, ND 58576, USA",ND,Producer Plant,https://harvestonelcp.com/fccp-19641
Dakota Spirit,46.965869,-98.50305,"3361 93rd Ave SE, Spiritwood, ND 58481, USA",ND,Non-Member Facility,https://harvestonelcp.com/fccp-19646
Gevo North Dakota,46.879173,-102.304714,"8730 10, Richardton, ND 58652, USA",ND,Producer Plant,https://redtrailenergy.com/
Guardian Energy Hankinson,46.07017,-96.872362,"9230 County Road 1, Hankinson, ND 58041, USA",ND,Non-Member Facility,https://www.guardiannrg.com/locations/hankinson
Tharaldson Ethanol LLC,46.89958,-97.26347,"3549 153rd Avenue Southeast, Casselton, ND 58012, USA",ND,Producer Plant,https://www.tharaldsonethanol.com/
ADM &#8211; Columbus Dry Mill,41.423838,-97.290813,"3000 8th St E, Columbus, NE 68601, USA",NE,Producer Plant,https://www.adm.com/en-us/products-services/industrial-biosolutions/products/ethanol/
ADM &#8211; Columbus Wet Mill,41.423838,-97.290813,"3000 8th St E, Columbus, NE 68601, USA",NE,Producer Plant,https://www.adm.com/en-us/products-services/industrial-biosolutions/products/ethanol/
Bridgeport Ethanol LLC,41.64338,-103.07652,"10106 S Railroad Ave, Bridgeport, NE 69336, USA",NE,Producer Plant,http://www.sterlingethanol.com/index.cfm?show=10&mid=25
CIE &#8211; Norfolk,42.068094,-97.387538,"3002 N Victory Rd, Norfolk, NE 68701, USA",NE,Non-Member Facility,https://www.cienorfolk.com/
Cargill &#8211; Blair,41.539379,-96.101004,"650 Industrial Park Dr, Blair, NE 68008, USA",NE,Producer Plant,https://www.cargill.com/bioindustrial/starches-and-derivatives/starch-derivatives/industrial-ethanol
Chief Ethanol Fuels &#8211; Hastings,40.58529,-98.31897,"4225 E South St, Hastings, NE 68901, USA",NE,Non-Member Facility,http://www.chiefethanol.com/
Chief Ethanol Fuels &#8211; Lexington,40.766891,-99.722541,"1111 E Industry Dr, Lexington, NE 68850, USA",NE,Non-Member Facility,http://www.chiefethanol.com/
E Energy Adams LLC,40.483937,-96.546133,"13238 East Aspen Road, Adams, NE 68301, USA",NE,Non-Member Facility,https://eenergyadams.com/
Green Plains &#8211; Central City,41.11382,-98.00248,"214 20th St, Central City, NE 68826, USA",NE,Non-Member Facility,https://gpreinc.com/location/central-city/
Green Plains &#8211; Wood River,40.8143,-98.61116,"7874 South 140th Road, Wood River, NE 68883, USA",NE,Non-Member Facility,https://gpreinc.com/location/wood-river/
Green Plains &#8211; York,40.8976,-97.544564,"1414 Rd O, York, NE 68467, USA",NE,Non-Member Facility,https://gpreinc.com/location/york/
GreenAmerica Biofuels Ord LLC,41.5695838,-98.8217271,"48267 Val-E, Ord, NE 68862, USA",NE,Non-Member Facility,https://www.greenamericabiofuels.com/
Husker Ag LLC,42.350213408237614,-97.7074418298336,"54048 U.S. 20, Plainview, NE 68769, USA",NE,Producer Plant,https://huskerag.com/
KAAPA Ethanol LLC,40.482645,-99.074887,"8450 Kaapa Ln, Minden, NE 68959, USA",NE,Non-Member Facility,https://kaapaethanolcommodities.com/
KAAPA Ethanol Ravenna LLC,41.020358,-98.87081,"35955 Navaho Rd, Ravenna, NE 68869, USA",NE,Non-Member Facility,http://www.kaapaethanolravenna.com/
KAAPA Partners Aurora LLC,40.8677791,-98.0400316,"2103 Harvest Drive, Aurora, NE 68818, USA",NE,Non-Member Facility,https://kaapaethanolcommodities.com/Locations/Aurora
Mid America Bio Energy &#038; Commodities LLC,41.08911875169121,-100.74279027252624,"1900 E State Farm Rd, North Platte, NE 69101, USA",NE,Producer Plant,
Midwest Renewable Energy LLC,41.161051,-101.090417,"27532 U.S. 30, Sutherland, NE 69165, USA",NE,Non-Member Facility,http://www.mre-ethanol.com/
Nebraska Corn Processing LLC,40.28017,-100.16192,"107 Potter St, Cambridge, NE 69022, USA",NE,Producer Plant,https://www.nebraskacornprocessing.com/
POET Bioprocessing &#8211; Fairmont,40.6136,-97.601013,"1214 Rd G, Fairmont, NE 68354, USA",NE,Producer Plant,https://poet.com/fairmont
Sandhills Renewable Energy LLC,42.51836,-98.95711,"87590 Hillcrest Rd, Atkinson, NE 68713, USA",NE,Non-Member Facility,https://www.sandhillsrenewables.com/
Siouxland Ethanol,42.4555625,-96.599652,"1501 Knox Boulevard, Jackson, NE 68743, USA",NE,Non-Member Facility,http://www.siouxlandethanol.com/
Trenton Agri Products LLC,40.196112,-100.979733,"36638 U.S. 34, Trenton, NE 69044, USA",NE,Non-Member Facility,http://www.trentonagriproducts.com/
Valero Renewable Fuels &#8211; Albion,41.679531,-97.978825,"2615 260th St, Albion, NE 68620, USA",NE,Non-Member Facility,https://www.valero.com/about/locations/albion-plant
Renmatix &#8211; Rome,43.217613,-75.4110395,"679 Ellsworth Rd, Rome, NY 13441, USA",NY,Non-Member Facility,https://renmatix.com/contact/#locations
Western New York Energy LLC,43.20434,-78.37514,"4141 Bates Rd, Medina, NY 14103, USA",NY,Producer Plant,https://wnyenergy.com/
Guardian Energy Lima,40.706092,-84.077678,"2485 Houx Parkway, Lima, OH 45804, USA",OH,Non-Member Facility,https://www.guardiannrg.com/locations/lima
POET Bioprocessing &#8211; Fostoria,41.15989,-83.40297,"2111 Sandusky Street, Fostoria, OH 44830, USA",OH,Producer Plant,https://poet.com/fostoria
POET Bioprocessing &#8211; Leipsic,41.09838,-83.98467,"3875 State Rte 65, Leipsic, OH 45856, USA",OH,Producer Plant,https://poet.com/leipsic
POET Bioprocessing &#8211; Marion,40.58867,-83.12852,"1660 Hillman-Ford Road, Marion, OH 43302, USA",OH,Producer Plant,https://poet.com/marion
The Andersons &#8211; Greenville,40.0859646,-84.6153592,"5728 Sebring Warner Road, Greenville, OH 45331, USA",OH,Producer Plant,https://www.andersonsgrain.com/locations/oh/greenville/
Three Rivers Energy,40.21601,-81.86699,"18137 Co Rd 271, Coshocton, OH 43812, USA",OH,Producer Plant,http://www.threeriversenergyllc.com/
Valero Renewable Fuels &#8211; Bloomingburg,39.596657,-83.394405,"3979 OH-38, Bloomingburg, OH 43106, USA",OH,Non-Member Facility,https://www.valero.com/about/locations/bloomingburg-plant
Alto Ingredients Columbia LLC,45.855991,-119.655835,"71335 Rail Loop Drive, Boardman, OR 97818, USA",OR,Non-Member Facility,https://www.altoingredients.com/columbia-or/
Pennsylvania Grain Processing LLC,41.03023,-78.43234,"250 Technology Dr W, Clearfield, PA 16830, USA",PA,Producer Plant,https://www.pagrain.com/
Dakota Ethanol LLC,44.0220574,-97.0113492,"46269 SD-34, Wentworth, SD 57075, USA",SD,Non-Member Facility,https://www.dakotaethanol.com/
Gevo &#8211; Lake Preston (Under Construction),44.36040544145291,-97.37316695299428,"9M68+RP Lake Preston, SD 57249, USA",SD,Non-Member Facility,https://gevo.com/locations/
Glacial Lakes Energy LLC &#8211; Aberdeen,45.45835,-98.54299,"38469 133rd St, Aberdeen, SD 57401, USA",SD,Producer Plant,https://www.glaciallakesenergy.com/locations_aberdeen.htm
Glacial Lakes Energy LLC &#8211; Huron,44.37396,-98.25462,"694 West Park Avenue Northwest, Huron, SD 57350, USA",SD,Producer Plant,https://www.glaciallakesenergy.com/locations_huron.htm
Glacial Lakes Energy LLC &#8211; Mina,45.443218,-98.787569,"13435 370th Avenue, Mina, SD 57451, USA",SD,Producer Plant,https://www.glaciallakesenergy.com/locations_mina.htm
Glacial Lakes Energy LLC &#8211; Watertown,44.87689,-97.11315,"301 20th Avenue Southeast, Watertown, SD 57201, USA",SD,Producer Plant,https://www.glaciallakesenergy.com/locations_watertown.htm
NuGen Energy,43.434894,-97.273073,"27283 447th Ave, Marion, SD 57043, USA",SD,Non-Member Facility,http://www.nugenmarion.com/
POET Bioprocessing &#8211; Big Stone,45.29163,-96.46283,"48416 144th Street, Big Stone City, SD 57216, USA",SD,Producer Plant,https://poet.com/bigstone
POET Bioprocessing &#8211; Chancellor,43.3722,-96.987,"27716 462nd Ave, Chancellor, SD 57015, USA",SD,Producer Plant,https://poet.com/chancellor
POET Bioprocessing &#8211; Groton,45.44746,-98.09871,"40425 133rd Street, Groton, SD 57445, USA",SD,Producer Plant,https://poet.com/groton
POET Bioprocessing &#8211; Hudson,43.13026,-96.4542,"29619 Spur Avenue, Hudson, SD 57034, USA",SD,Producer Plant,https://poet.com/hudson
POET Bioprocessing &#8211; Mitchell,43.70943,-98.0298,"40509 247th St, Mitchell, SD 57301, USA",SD,Producer Plant,https://poet.com/mitchell
POET Research Center,43.14972,-97.71757,"851 Washington St, Scotland, SD 57059, USA",SD,Non-Member Facility,https://poet.com/scotland
"Red River Energy, LLC",45.8731062,-96.7262802,"47333 104th St, Rosholt, SD 57260, USA",SD,Non-Member Facility,http://www.redriverenergy.com/
Redfield Energy LLC,44.87581,-98.51871,"38650 171st St, Redfield, SD 57469, USA",SD,Producer Plant,https://redfieldenergy.com/
Ringneck Energy LLC,44.69229,-100.06232,"901 Redwood Ave, Onida, SD 57564, USA",SD,Non-Member Facility,https://ringneckenergy.com/
Valero Renewable Fuels &#8211; Aurora,44.2918617,-96.7005709,"1 Valero Pl, Aurora, SD 57002, USA",SD,Non-Member Facility,https://www.valero.com/about/locations/aurora-plant
Dynamic Recycling LLC,36.56220271845046,-82.17089668331195,"220 North Industrial Drive, Bristol, TN 37620, USA",TN,Non-Member Facility,https://www.ethanolrecycling.com/
POET Bioprocessing – Obion,36.35562,-89.04812,"2098 McDonald Rd, Rives, TN 38253, USA",TN,Producer Plant,https://poet.com/obion
Primient,35.734429291053274,-84.32017042883587,"198 Blair Bend Rd, Loudon, TN 37774, USA",TN,Non-Member Facility,https://primient.com/contact/locations
Hartree Partners,33.58838,-102.26316,"6051 TX-114, Levelland, TX 79336, USA",TX,Non-Member Facility,
Hereford Ethanol Partners LP,34.84756,-102.31576,"4300 County Road 8, Hereford, Texas 79045, USA",TX,Producer Plant,https://www.herefordethanol.com/
White Energy Hereford LLC,34.827364,-102.370372,"3748 S Progressive Rd, Hereford, TX 79045, USA",TX,Non-Member Facility,https://www.white-energy.com/biorefineries/hereford-texas-biorefinery/
White Energy Plainview LLC,34.182511,-101.642764,"2698 U.S. 70 #70, Plainview, TX 79072, USA",TX,Non-Member Facility,https://www.white-energy.com/biorefineries/plainview-texas-biorefinery/
MXI Environmental Services LLC,36.7384158833425,-81.90275347563117,"26319 Old Trail Road, Abingdon, VA 24210, USA",VA,Non-Member Facility,http://www.mxiinc.com/
Ace Ethanol LLC,44.95936,-90.96036,"815 W Maple St, Stanley, WI 54768, USA",WI,Producer Plant,https://www.aceethanol.com/
Aztalan Bio LLC,43.038526,-88.793304,"w5287 Joe Turley Wy, Johnson Creek, WI 53038, USA",WI,Non-Member Facility,https://www.aztalanbio.com/
Badger State Ethanol,42.60112,-89.63845,"820 W 17th St, Monroe, WI 53566, USA",WI,Non-Member Facility,https://badgerstateethanol.com/
Big River Resources Boyceville LLC,45.05043,-91.97991,"N10185 370th St, Boyceville, WI 54725, USA",WI,Producer Plant,https://www.bigriverresources.com/cbloc-2121
Didion Ethanol LLC,43.538304,-89.103598,"n7088 WI-146, Cambria, WI 53923, USA",WI,Producer Plant,https://didioninc.com/ethanol/
Fox River Valley Ethanol LLC,43.98098,-88.65162,"4995 WI-91, Oshkosh, WI 54904, USA",WI,Producer Plant,https://www.frvethanol.com/locations/
United Energy Necedah LLC,43.99035193857805,-90.07577830173103,"N9585 State Road 80, Necedah, WI 54646, USA",WI,Non-Member Facility,https://www.unitedcooperative.com/locations/united-energy-necedah
United Ethanol LLC,42.763519,-88.917968,"1250 Chicago Street, Milton, WI 53563, USA",WI,Non-Member Facility,http://www.unitedethanol.com/
United Wisconsin Grain Producers LLC,43.5706,-89.061,"W1231 Tessman Dr, Friesland, WI 53923",WI,Producer Plant,https://www.uwgp.com/
